[
{
  "fields": {
    "name": "ComputerWorld",
    "responsible_contact": "martin@codingpirates.dk",
    "housenumber": "18",
    "has_waiting_list": true,
    "description": "",
    "open_hours": "torsdage 17:00 - 19:00",
    "door": "",
    "dawa_id": "",
    "floor": "2. sal",
    "placename": "ComputerWorld",
    "updated_dtm": "2015-07-14T18:27:28.119Z",
    "city": "Herlev",
    "responsible_name": "Martin Exner",
    "streetname": "H\u00f8rk\u00e6r ",
    "zipcode": "2730"
  },
  "model": "members.department",
  "pk": 5
},
{
  "fields": {
    "name": "IT Universitetet",
    "responsible_contact": "per@codingpirates.dk",
    "housenumber": "7",
    "has_waiting_list": true,
    "description": "",
    "open_hours": "onsdage 17: - 19:00",
    "door": "",
    "dawa_id": "",
    "floor": "",
    "placename": "ITU",
    "updated_dtm": "2015-07-14T18:38:59.613Z",
    "city": "K\u00f8benhavn S",
    "responsible_name": "Per Kofod Hansen",
    "streetname": "Rued Langgaards Vej",
    "zipcode": "2300"
  },
  "model": "members.department",
  "pk": 6
},
{
  "fields": {
    "name": "Microsoft",
    "responsible_contact": "ragnar@codingpirates.dk",
    "housenumber": "44",
    "has_waiting_list": true,
    "description": "",
    "open_hours": "tirsdage 17:00 - 19:00",
    "door": "",
    "dawa_id": "",
    "floor": "",
    "placename": "Microsoft",
    "updated_dtm": "2015-07-14T18:41:02.570Z",
    "city": "Kgs. Lyngby",
    "responsible_name": "Ragnar Reynisson",
    "streetname": "Trong\u00e5rdsvej ",
    "zipcode": "2800"
  },
  "model": "members.department",
  "pk": 7
},
{
  "fields": {
    "name": "Datalogisk Institut ved K\u00f8benhavns Universitet",
    "responsible_contact": "diku@codingpirates.dk",
    "housenumber": "1 ",
    "has_waiting_list": true,
    "description": "",
    "open_hours": "tirsdage 17:00 - 19:00",
    "door": "",
    "dawa_id": "",
    "floor": "",
    "placename": "",
    "updated_dtm": "2015-07-14T18:48:30.100Z",
    "city": "K\u00f8benhavn \u00d8",
    "responsible_name": "Martin Dybdal",
    "streetname": "Universitetsparken ",
    "zipcode": "2100"
  },
  "model": "members.department",
  "pk": 8
},
{
  "fields": {
    "name": "Aalborg",
    "responsible_contact": "magnus@codingpirates.dk",
    "housenumber": "115",
    "has_waiting_list": true,
    "description": "",
    "open_hours": "opdateres",
    "door": "",
    "dawa_id": "",
    "floor": "",
    "placename": "Aalborg",
    "updated_dtm": "2015-07-14T19:09:31.386Z",
    "city": "N\u00f8rresundby",
    "responsible_name": "Magnus Toftdal Lund",
    "streetname": "Thistedvej",
    "zipcode": "9400"
  },
  "model": "members.department",
  "pk": 9
},
{
  "fields": {
    "name": "CUDiM ved Aarhus Universitet",
    "responsible_contact": "rikke@codingpirates.dk",
    "housenumber": "48",
    "has_waiting_list": true,
    "description": "",
    "open_hours": "opdateres",
    "door": "",
    "dawa_id": "",
    "floor": "",
    "placename": "CUDiM",
    "updated_dtm": "2015-07-14T19:09:53.108Z",
    "city": "Aarhus N",
    "responsible_name": "Rikke Toft N\u00f8rgaard",
    "streetname": "Paludan-M\u00fcllers Vej",
    "zipcode": "8200"
  },
  "model": "members.department",
  "pk": 10
},
{
  "fields": {
    "name": "Aarhus Hovedbibliotek DOKK1",
    "responsible_contact": "rikkbp@gmail.com",
    "housenumber": "2",
    "has_waiting_list": true,
    "description": "",
    "open_hours": "opdateres",
    "door": "",
    "dawa_id": "",
    "floor": "",
    "placename": "DOKK1",
    "updated_dtm": "2015-07-14T19:09:41.668Z",
    "city": "Aarhus C",
    "responsible_name": "Rikke Berggren",
    "streetname": "Hack Kampmanns Plads",
    "zipcode": "8000"
  },
  "model": "members.department",
  "pk": 11
},
{
  "fields": {
    "name": "Helsinge",
    "responsible_contact": "Kristina.hobbs@live.com",
    "housenumber": "43",
    "has_waiting_list": true,
    "description": "",
    "open_hours": "tirsdage 17:00 - 19:00",
    "door": "",
    "dawa_id": "",
    "floor": "",
    "placename": "",
    "updated_dtm": "2015-07-14T19:17:11.587Z",
    "city": "Helsinge",
    "responsible_name": "Kristina Hobbs",
    "streetname": "Skolegade",
    "zipcode": "3200"
  },
  "model": "members.department",
  "pk": 12
},
{
  "fields": {
    "name": "Helsing\u00f8r",
    "responsible_contact": "hej@mortenholmstrup.dk",
    "housenumber": "2",
    "has_waiting_list": true,
    "description": "",
    "open_hours": "opdateres ",
    "door": "",
    "dawa_id": "",
    "floor": "",
    "placename": "Kulturv\u00e6rftet",
    "updated_dtm": "2015-07-14T19:10:59.236Z",
    "city": "Helsing\u00f8r",
    "responsible_name": "Morten Holmstrup Gerdsen",
    "streetname": "Allegade",
    "zipcode": "3000"
  },
  "model": "members.department",
  "pk": 13
},
{
  "fields": {
    "name": "Pentia",
    "responsible_contact": "john@pentia.dk",
    "housenumber": "55",
    "has_waiting_list": true,
    "description": "",
    "open_hours": "tirsdage 17:00 - 19:00",
    "door": "",
    "dawa_id": "",
    "floor": "",
    "placename": "Pentia",
    "updated_dtm": "2015-07-14T19:11:10.011Z",
    "city": "K\u00f8benhavn S ",
    "responsible_name": "John Andrew Carty",
    "streetname": "Islands Brygge",
    "zipcode": "2300"
  },
  "model": "members.department",
  "pk": 14
},
{
  "fields": {
    "name": "Roskilde",
    "responsible_contact": "allantv@roskilde.dk",
    "housenumber": "14",
    "has_waiting_list": true,
    "description": "",
    "open_hours": "opdateres ",
    "door": "",
    "dawa_id": "",
    "floor": "",
    "placename": "",
    "updated_dtm": "2015-07-14T19:11:17.497Z",
    "city": "Roskilde",
    "responsible_name": "Allan Thomsen Volh\u00f8j",
    "streetname": "Dronning Margrethes Vej ",
    "zipcode": "4000"
  },
  "model": "members.department",
  "pk": 15
},
{
  "fields": {
    "name": "Sor\u00f8",
    "responsible_contact": "rasmus@selsmark.dk",
    "housenumber": "1 ",
    "has_waiting_list": true,
    "description": "",
    "open_hours": "opdateres ",
    "door": "",
    "dawa_id": "",
    "floor": "",
    "placename": "",
    "updated_dtm": "2015-07-14T19:11:26.256Z",
    "city": "Sor\u00f8",
    "responsible_name": "Rasmus M\u00f8ller Selsmark",
    "streetname": "Smedeparken",
    "zipcode": "4180"
  },
  "model": "members.department",
  "pk": 16
},
{
  "fields": {
    "name": "T\u00e5rnby",
    "responsible_contact": "mbp.hb.bk@taarnby.dk",
    "housenumber": "10",
    "has_waiting_list": true,
    "description": "",
    "open_hours": "tirsdage 17:00 - 19:00",
    "door": "",
    "dawa_id": "",
    "floor": "",
    "placename": "",
    "updated_dtm": "2015-07-14T19:03:53.788Z",
    "city": "Kastrup",
    "responsible_name": "Marianne Pedersen",
    "streetname": "Kamillevej",
    "zipcode": "2770 "
  },
  "model": "members.department",
  "pk": 17
},
{
  "fields": {
    "name": "TECS S\u00f8nderborg",
    "responsible_contact": "john@johnrohde.eu",
    "housenumber": "100",
    "has_waiting_list": true,
    "description": "",
    "open_hours": "opdateres ",
    "door": "",
    "dawa_id": "",
    "floor": "",
    "placename": "S\u00f8nderskov-Skolen",
    "updated_dtm": "2015-07-14T19:11:34.495Z",
    "city": "S\u00f8nderborg",
    "responsible_name": "John Rohde Jensen",
    "streetname": "Grundtvigs All\u00e9",
    "zipcode": "6400"
  },
  "model": "members.department",
  "pk": 18
},
{
  "fields": {
    "name": "Frederiksberg",
    "responsible_contact": "lis.zacho@gmail.com",
    "housenumber": "10 ",
    "has_waiting_list": true,
    "description": "",
    "open_hours": "opdateres",
    "door": "",
    "dawa_id": "",
    "floor": "",
    "placename": "Skolen Ved S\u00f8erne",
    "updated_dtm": "2015-07-14T19:10:05.389Z",
    "city": "Frederiksberg",
    "responsible_name": "Lis Zacho",
    "streetname": "Niels Ebbesens Vej",
    "zipcode": "1911"
  },
  "model": "members.department",
  "pk": 19
},
{
  "fields": {
    "name": "Vejle",
    "responsible_contact": "",
    "housenumber": "11E",
    "has_waiting_list": true,
    "description": "Kommer snart",
    "open_hours": "",
    "door": "",
    "dawa_id": "",
    "floor": "",
    "placename": "",
    "updated_dtm": "2015-07-14T20:19:18.786Z",
    "city": "Vejle",
    "responsible_name": "",
    "streetname": "Spinderigade",
    "zipcode": "7100"
  },
  "model": "members.department",
  "pk": 20
},
{
  "fields": {
    "name": "Silkeborg",
    "responsible_contact": "",
    "housenumber": "N/A",
    "has_waiting_list": true,
    "description": "Kommer snart",
    "open_hours": "",
    "door": "",
    "dawa_id": "",
    "floor": "",
    "placename": "",
    "updated_dtm": "2015-07-14T20:24:09.085Z",
    "city": "Silkeborg",
    "responsible_name": "",
    "streetname": "N/A",
    "zipcode": "8600"
  },
  "model": "members.department",
  "pk": 21
},
{
  "fields": {
    "name": "Skanderborg",
    "responsible_contact": "",
    "housenumber": "N/A",
    "has_waiting_list": true,
    "description": "",
    "open_hours": "",
    "door": "",
    "dawa_id": "",
    "floor": "",
    "placename": "",
    "updated_dtm": "2015-07-14T20:26:04.054Z",
    "city": "Skanderborg",
    "responsible_name": "",
    "streetname": "N/A",
    "zipcode": "8660"
  },
  "model": "members.department",
  "pk": 22
},
{
  "fields": {
    "name": "Vigerslev",
    "responsible_contact": "ZK0U@kff.kk.dk",
    "housenumber": "23",
    "has_waiting_list": true,
    "description": "Kommer snart",
    "open_hours": "",
    "door": "",
    "dawa_id": "",
    "floor": "",
    "placename": "",
    "updated_dtm": "2015-07-14T20:27:36.886Z",
    "city": "Valby",
    "responsible_name": "Sonny Hansen",
    "streetname": "Kirseb\u00e6rhaven",
    "zipcode": "2500"
  },
  "model": "members.department",
  "pk": 23
}
]
